artist_id,name,origin,latitude,longitude
0,2 Chainz,"College Park, Georgia, United States",33.6534427,-84.4493725
1,2 Pistols,"Tarpon Springs, Florida, United States",28.148082950000003,-82.74380159717906
2,21 Savage,"Atlanta, Georgia, United States",33.7489924,-84.3902644
3,24kGoldn,"San Francisco, California, United States",37.7790262,-122.419906
4,3 Doors Down,"Escatawpa, Mississippi, United States",30.4911305,-88.55140993494504
5,3OH!3,"Boulder, Colorado, United States",40.0154155,-105.270241
6,42 Dugg,"Detroit, Michigan, United States",42.3315509,-83.0466403
7,5 Seconds Of Summer,"Sydney, New South Wales, Australia",-33.8698439,151.2082848
8,50 Cent,"New York City, United States",40.7127281,-74.0060152
9,6ix9ine,"New York City, United States",40.7127281,-74.0060152
10,6LACK,"Atlanta, Georgia, United States",33.7489924,-84.3902644
11,A Boogie Wit da Hoodie,"New York City, United States",40.7127281,-74.0060152
12,A Great Big World,"New York City, New York, United States",40.7127281,-74.0060152
13,A$AP Ferg,"New York City, United States",40.7127281,-74.0060152
14,A$AP Rocky,"New York City, United States",40.7127281,-74.0060152
15,Ace Hood,"Deerfield Beach, Florida, United States",26.318342,-80.0996306
16,Adam Lambert,"San Diego, California, United States",32.7174202,-117.1627728
17,Adam Levine,"Los Angeles, California, United States",34.0536909,-118.242766
18,Adele,"London, England",51.5073219,-0.1276474
19,Afrojack,"Spijkenisse, South Holland, Netherlands",51.8464881,4.3287681
20,AJR,"Manhattan, New York, United States",40.7896239,-73.9598939
21,Akon,"Newark, New Jersey, United States",40.735657,-74.1723667
22,Alessia Cara,"Mississauga, Ontario, Canada",43.5896231,-79.6443879
23,Alex Clare,"Golders Green, London, England",51.5718315,-0.1955219
24,Ali,"St. Louis, Missouri, United States",38.6319657,-90.2428756
25,Alicia Keys,"New York City, United States",40.7127281,-74.0060152
26,Aloe Blacc,"Laguna Hills, California, United States",33.5948758,-117.6882067
27,AlunaGeorge,"London, England",51.5073219,-0.1276474
28,American Authors,"Boston, Massachusetts, United States",42.3554334,-71.060511
29,Amine,"Casablanca, Morocco, Morocco",33.5950627,-7.6187768
30,Amy Winehouse,"Southgate, London, England",51.6281547,-0.123596
31,Anderson .Paak,"Oxnard, California, United States",34.1976308,-119.1803818
32,Andre 3000,"Atlanta, Georgia, United States",33.7489924,-84.3902644
33,Andy Grammer,"Los Angeles, California, United States",34.0536909,-118.242766
34,Anna Kendrick,"Portland, Maine, United States",43.6610277,-70.2548596
35,Anne-Marie,"Tilbury, Essex, England",52.036852100000004,0.561803405046945
36,Ariana Grande,"Boca Raton, Florida, United States",26.3586885,-80.0830984
37,Arizona Zervas,"Hagerstown, Maryland, United States",39.6430455,-77.7191081
38,Asher Roth,"Morrisville, Pennsylvania, United States",40.2114978,-74.7879399
39,ATR Son Son,"St. Petersburg, Florida, United States",27.7703796,-82.6695085
40,Ava Max,"Milwaukee, Wisconsin, United States",43.0349931,-87.922497
41,Avicii,"Stockholm, Sweden",59.3251172,18.0710935
42,Avril Lavigne,"Belleville, Ontario, Canada",44.1633264,-77.3852556
43,AWOLNATION,"Los Angeles, California, United States",34.0536909,-118.242766
44,Ayo and Teo,"Ann Arbor, Michigan, USA",42.2681569,-83.7312291
45,B.o.B,"Decatur, Georgia, United States",30.8736613,-84.5740953
46,Baauer,"Philadelphia, Pennsylvania, United States",39.9527237,-75.1635262
47,Baby Bash,"Houston, Texas, United States",29.7589382,-95.3676974
48,Baby Boy Da Prince,"New Orleans, Louisiana, United States",29.9759983,-90.0782127
49,Bad Bunny,"Vega Baja, Puerto Rico",18.4445314,-66.387587
50,Bad Meets Evil,"Detroit, Michigan, United States",42.3315509,-83.0466403
51,Bastille,"London, England",51.5073219,-0.1276474
52,Bazzi,"Canton, Michigan, United States",42.3076547,-83.4868961
53,beabadoobee,"Manila, Philippines",14.5948914,120.9782618
54,Bebe Rexha,"Brooklyn, New York City, United States",40.6526006,-73.9497211
55,Becky G,"Inglewood, California, United States",33.9562003,-118.353132
56,BENEE,"Grey Lynn, Auckland, New Zealand",-36.859922,174.7364178
57,benny blanco,"Reston, Virginia, United States",38.955696,-77.34188283719988
58,Beyonce,"Houston, Texas, United States",29.7589382,-95.3676974
59,Big Sean,"Detroit, Michigan, United States",42.3315509,-83.0466403
60,Billie Eilish,"Los Angeles, California, United States",34.0536909,-118.242766
61,Billy Currington,"Rincon, Georgia, United States",32.2960289,-81.2353905
62,Billy Ray Cyrus,"Flatwoods, Kentucky, United States",38.5225805,-82.7171081
63,Bipolar Sunshine,"Manchester, England",53.4794892,-2.2451148
64,Birdman,"New Orleans, Louisiana, United States",29.9759983,-90.0782127
65,BJ The Chicago Kid,"Chicago, Illinois, United States",41.8755616,-87.6244212
66,Black Eyed Peas,"Los Angeles, California, United States",34.0536909,-118.242766
67,blackbear,"Palm Coast, Florida, United States",29.5541432,-81.2207673
68,Blake Shelton,"Nashville, Tennessee, United States",36.1622767,-86.7742984
69,Blanco Brown,"Atlanta, Georgia, United States",33.7489924,-84.3902644
70,BlocBoy JB,"Memphis, Tennessee, United States",35.1335022,-89.9668758
71,Blue October,"Houston, Texas, United States",29.7589382,-95.3676974
72,Blueface,"Los Angeles, California, United States",34.0536909,-118.242766
73,Bobby Shmurda,"Brooklyn, New York, United States",40.6526006,-73.9497211
74,Bobby Valentino,"Mississippi, United States",32.9715285,-89.7348497
75,Bon Jovi,"Sayreville, New Jersey, United States",40.4635362,-74.3618499
76,Bone Thugs-N-Harmony,"Cleveland, Ohio, United States",41.4996574,-81.6936772
77,Bow Wow,"London, England",51.5073219,-0.1276474
78,Boys Like Girls,"Boston, Massachusetts, United States",42.3554334,-71.060511
79,Brad Paisley,"Glen Dale, West Virginia, United States",39.946470500000004,-80.75575871338731
80,Bradley Cooper,"Abington Township, Pennsylvania, United States",40.1206656,-75.1179512
81,Brandy 'Ms. B.' Hambrick,,,
82,Brantley Gilbert,"Jefferson, Georgia, United States",33.0380388,-82.436141
83,Brenda Lee,"Atlanta, Georgia, US",33.7489924,-84.3902644
84,Brendon Urie,"Las Vegas, Nevada, United States",36.1672559,-115.148516
85,Brett Young,"Anaheim, Orange County, California",33.8347516,-117.911732
86,Britney Spears,"McComb, Mississippi, United States",31.2437872,-90.4531536
87,BRS Kash,"Atlanta, Georgia, United States",33.7489924,-84.3902644
88,Bruno Mars,"Honolulu, Hawaii, United States",21.304547,-157.855676
89,Bryson Tiller,"Louisville, Kentucky, United States",38.2542376,-85.759407
90,BTS,"Seoul, South Korea",37.5666791,126.9782914
91,Bubba Sparxxx,"LaGrange, Georgia, United States",33.039291,-85.0313269
92,Buckcherry,"Anaheim, California, United States",33.8347516,-117.911732
93,Busta Rhymes,"New York City, United States",40.7127281,-74.0060152
94,Ca$h Out,"Atlanta, Georgia, United States",33.7489924,-84.3902644
95,Calboy,"Calumet City, Illinois, United States",41.616016,-87.5295837
96,Cali Swag District,"Inglewood, California, US",33.9562003,-118.353132
97,Calvin Harris,"Dumfries, Scotland",55.069836,-3.6092292
98,Camila Cabello,"Cojímar, Havana, Cuba",23.1670372,-82.2953815
99,Capital Cities,"Los Angeles, California, US",34.0536909,-118.242766
100,Cardi B,"New York City, United States",40.7127281,-74.0060152
101,Carly Pearce,"Taylor Mill, Kentucky, United States",38.9975616,-84.4963306
102,Carly Rae Jepsen,"Mission, British Columbia, Canada",49.1589351,-122.283583
103,Carrie Underwood,"Muskogee, Oklahoma, United States",35.6630196,-95.3927706
104,Cascada,"Bonn, Germany",50.735851,7.10066
105,Casper Magico,"San Juan, Puerto Rico",18.465299,-66.116666
106,Cassie,"New London, Connecticut, United States",41.3556187,-72.0997804
107,Cataracs,"Berkeley, California, United States",37.8753497,-122.23963364918777
108,Cedric Gervais,"Marseille, France",43.2961743,5.3699525
109,Chad Kroeger,"Hanna, Alberta, Canada",51.6445566,-111.927479
110,Chamillionaire,"Houston, Texas, United States",29.7589382,-95.3676974
111,Chance The Rapper,"Chicago, Illinois, United States",41.8755616,-87.6244212
112,Charlay,,,
113,Charli XCX,"Cambridge, England",52.197584649999996,0.13915373736874398
114,Charlie Puth,"Rumson, New Jersey, United States",40.372054,-73.9990269
115,Chase Rice,"Asheville, North Carolina, United States",35.6009498,-82.5540161
116,Cheat Codes,"Los Angeles, California, United States",34.0536909,-118.242766
117,Cher Lloyd,"Malvern, Worcestershire, England",52.1159559,-2.3258985
118,Cherine Anderson,"Kingston, Jamaica",17.9712148,-76.7928128
119,Cherish,"Atlanta, Georgia, United States",33.7489924,-84.3902644
120,Childish Gambino,"Stone Mountain, Georgia, United States",33.8062166,-84.1457505
121,Chingy,"St. Louis, Missouri, United States",38.6319657,-90.2428756
122,Chris Brown,"Tappahannock, Virginia, United States",37.9254168,-76.8591362
123,Chris Stapleton,"Nashville, Tennessee, United States",36.1622767,-86.7742984
124,Chris Young,"Red Bank, New Jersey, United States",40.3470543,-74.0643065
125,Christina Aguilera,"Los Angeles, California, United States",34.0536909,-118.242766
126,Christina Perri,"Bensalem, Pennsylvania, United States",40.1045549,-74.951279
127,Ciara,"Riverdale, Georgia, United States",33.5726113,-84.4132594
128,City Girls,"Miami, Florida, United States",25.7741728,-80.19362
129,CJ,"Staten Island, New York, United States",40.5834557,-74.1496048
130,Clean Bandit,"Cambridge, England",52.197584649999996,0.13915373736874398
131,Cobra Starship,"New York City, United States",40.7127281,-74.0060152
132,Coi Leray,"Hackensack, New Jersey, United States",40.8871438,-74.0410865
133,Colbie Caillat,"Malibu, California",34.035591,-118.689423
134,Colby O'Donis,"Orlando, Florida, United States",28.5421109,-81.3790304
135,Coldplay,"London, England",51.5073219,-0.1276474
136,Cole Swindell,"Franklin, Tennessee, United States",35.925206,-86.8689419
137,Cory Gunz,"The Bronx, New York City, United States",40.8506558,-73.8665241
138,Crime Mob,"Atlanta, Georgia, United States",33.7489924,-84.3902644
139,D.R.A.M.,"Hampton, Virginia, United States",37.0300969,-76.3452057
140,D4L,"Atlanta, Georgia, United States",33.7489924,-84.3902644
141,Da Brat,"Chicago, Illinois, United States",41.8755616,-87.6244212
142,DaBaby,"Charlotte, North Carolina, United States",35.2272086,-80.8430827
143,Daddy Yankee,"San Juan, Puerto Rico",18.465299,-66.116666
144,Daft Punk,"Paris, France",48.8588897,2.3200410217200766
145,Dan and Shay,"Nashville, Tennessee, United States",36.1622767,-86.7742984
146,Daniel Caesar,"Oshawa, Ontario, Canada",43.8975558,-78.8635324
147,Daniel Powter,"Vernon, British Columbia, Canada",50.2668671,-119.2718157
148,Danity Kane,"New York City, United States",40.7127281,-74.0060152
149,Darell,,,
150,Darius Rucker,"Charleston, South Carolina, United States",32.7876012,-79.9402728
151,Daughtry,"Lasker, North Carolina, United States",36.35019805,-77.30581355932844
152,David Archuleta,"Murray, Utah, United States",40.6667841,-111.888417
153,David Banner,"Jackson, Mississippi, United States",32.3086744,-90.1983063
154,David Cook,"Blue Springs, Missouri, United States",39.017316,-94.282265
155,David Guetta,"Paris, France",48.8588897,2.3200410217200766
156,Daya,"Mt. Lebanon, Pennsylvania, United States",40.3765,-80.0508
157,Dean Lewis,"Sydney, New South Wales, Australia",-33.8698439,151.2082848
158,Dem Franchize Boyz,"Atlanta, Georgia, United States",33.7489924,-84.3902644
159,Demi Lovato,"Albuquerque, New Mexico, United States",35.0841034,-106.650985
160,Descemer Bueno,"Havana, Cuba",23.135305,-82.3589631
161,Desiigner,"New York City, United States",40.7127281,-74.0060152
162,Dev,"Tracy, California, United States",37.71993569999999,-121.43456405787504
163,Diddy,"New York City, United States",40.7127281,-74.0060152
164,Dierks Bentley,"Phoenix, Arizona, United States",33.4484367,-112.074141
165,Diplo,"Philadelphia, Pennsylvania, United States",39.9527237,-75.1635262
166,Disciples,,,
167,Disclosure,"Reigate, Surrey, United Kingdom",51.2376557,-0.2057067
168,DJ Frank E,"Denver, Colorado, United States",39.7392364,-104.984862
169,DJ Khaled,"New Orleans, Louisiana, United States",29.9759983,-90.0782127
170,DJ Snake,"Bejaia, Cabilia, Algerian",36.7489441,5.0698819
171,DNCE,"Los Angeles, California, United States",34.0536909,-118.242766
172,Doja Cat,"Los Angeles, California, United States",34.0536909,-118.242766
173,Don Toliver,"Houston, Texas, United States",29.7589382,-95.3676974
174,Dr. Dre,"Compton, California, United States",33.894927,-118.226624
175,Drake,"Toronto, Ontario, Canada",43.6534817,-79.3839347
176,Dua Lipa,"London, England",51.5073219,-0.1276474
177,Duncan Laurence,"Spijkenisse, Netherlands",51.8464881,4.3287681
178,Dustin Lynch,"Tullahoma, Tennessee, United States",35.3620235,-86.2094342
179,Dwele,"Detroit, Michigan, United States",42.3315509,-83.0466403
180,E-40,"East Bay, California, United States",33.6811328,-117.2592037
181,Echosmith,"Chino, California, United States",34.0133561,-117.690075
182,Ed Sheeran,"Halifax, West Yorkshire, England",53.7229229,-1.8604874
183,Edward Maya,"Bucharest, Romania",44.4361414,26.1027202
184,Eightball,"Brisbane Queensland, Australia",-27.4689682,153.0234991
185,Eli Young Band,"Denton, Texas, United States",33.1838787,-97.1413417
186,Ella Henderson,"Tetney, Lincolnshire, England",53.504726250000004,0.003982657115363185
187,Ella Mai,"New York City, New York, United States",40.7127281,-74.0060152
188,Elle King,"New York City, United States",40.7127281,-74.0060152
189,Ellie Goulding,"Hereford, England",52.0553813,-2.7151735
190,Elliott Yamin,"Richmond, Virginia, United States",37.5385087,-77.43428
191,Emeli Sande,"Sunderland, Tyne and Wear, England",54.8926307,-1.4102433840969901
192,Emilee,"Meridian, Mississippi, United States",32.3643098,-88.703656
193,Eminem,"Detroit, Michigan, United States",42.3315509,-83.0466403
194,Enrique Iglesias,"Miami-Dade County, Florida, United States",25.6364246,-80.4989467
195,Eric Church,"Nashville, Tennessee, United States",36.1622767,-86.7742984
196,Eric Nally,"Cincinnati, Ohio, United States",39.1014537,-84.5124602
197,Eric Turner,"Boston, Massachusetts, United States",42.3554334,-71.060511
198,Estelle,"London, England",51.5073219,-0.1276474
199,Evanescence,"Little Rock, Arkansas, United States",34.7465071,-92.2896267
200,Fabolous,"New York City, United States",40.7127281,-74.0060152
201,Fall Out Boy,"Wilmette, Illinois, United States",42.0757315,-87.7193768
202,Far*East Movement,"Los Angeles, California, United States",34.0536909,-118.242766
203,Fat Joe,"New York City, United States",40.7127281,-74.0060152
204,Fergie,"Hacienda Heights, California, United States",33.9930677,-117.968675
205,Fetty Wap,"Paterson, New Jersey, United States",40.9167654,-74.171811
206,Field Mob,"Albany, Georgia, United States",31.5782062,-84.1556809
207,Fifth Harmony,"Miami, Florida, United States",25.7741728,-80.19362
208,Finger Eleven,"Burlington, Ontario, Canada",43.3248924,-79.7966835
209,Flipp Dinero,"Canarsie, Brooklyn, New York, United States",40.643715,-73.9006921
210,Flo Rida,"Miami Gardens, Florida, United States",25.9420377,-80.2456045
211,Florence Welch,"Camberwell, London, England",51.4745706,-0.0925416
212,Florida Georgia Line,"Nashville, Tennessee, United States",36.1622767,-86.7742984
213,Flume,"Sydney, New South Wales, Australia",-33.8698439,151.2082848
214,Fort Minor,"Los Angeles, California, United States",34.0536909,-118.242766
215,Foster The People,"Los Angeles, California, United States",34.0536909,-118.242766
216,Foxes,"Seattle, Washington, United States",47.6038321,-122.330062
217,Frank Ocean,"New Orleans, Louisiana, United States",29.9759983,-90.0782127
218,French Montana,"New York City, United States",40.7127281,-74.0060152
219,Friends,,,
220,fun.,"New York City, New York, United States",40.7127281,-74.0060152
221,Future,"Atlanta, Georgia, United States",33.7489924,-84.3902644
222,G-Eazy,"Oakland, California, United States",37.8044557,-122.271356
223,Gabby Barrett,"Munhall, Pennsylvania, United States",40.3922914,-79.9000499
224,Gavin DeGraw,"South Fallsburg, New York, United States",41.703874,-74.632563
225,Gavin Rossdale,"Marylebone, London, England",51.5232789,-0.155596
226,Gente de Zona,"Havana, Cuba",23.135305,-82.3589631
227,George Ezra,"Hertford, Hertfordshire, England",51.7957409,-0.078521
228,Gipp,"Laurium, Michigan",47.237426,-88.443173
229,Giveon,"Long Beach, California, United States",33.7690164,-118.191604
230,Glass Animals,"Oxford, England",51.7520131,-1.2578499
231,Gnarls Barkley,"Atlanta, Georgia, United States",33.7489924,-84.3902644
232,gnash,"Los Angeles, California, United States",34.0536909,-118.242766
233,GoonRock,"Trenton, New Jersey, California, United States",,
234,Gorillaz,"London, England",51.5073219,-0.1276474
235,Gotye,"Melbourne, Victoria, Australia",-37.8142176,144.9631608
236,Grace Potter,,,
237,Grandmaster Caz,"The Bronx, New York City, New York",40.8506558,-73.8665241
238,Green Day,"East Bay, California, United States",33.6811328,-117.2592037
239,Grey,"Los Angeles, California, United States",34.0536909,-118.242766
240,Gucci Mane,"Atlanta, Georgia, United States",33.7489924,-84.3902644
241,Gunna,"College Park, Georgia, United States",33.6534427,-84.4493725
242,Gus Dapperton,"Warwick, New York, United States",41.256483,-74.3598755
243,Gwen Stefani,"Anaheim, California, United States",33.8347516,-117.911732
244,Gym Class Heroes,"Geneva, New York, United States",42.8690271,-76.9786122
245,H.E.R.,"Vallejo, California, United States",38.1040864,-122.2566367
246,Hailee Steinfeld,"Tarzana, California, United States",34.1689295,-118.536567
247,Halsey,"Edison, New Jersey, United States",40.518157,-74.4113926
248,Harry Styles,"Redditch, England",52.3057655,-1.9417444
249,Havana Brown,"Melbourne, Victoria, Australia",-37.8142176,144.9631608
250,Hayley Williams,"Franklin, Tennessee, United States",35.925206,-86.8689419
251,Hellogoodbye,"Huntington Beach, California",33.6783336,-118.0000166
252,Hinder,"Oklahoma City, Oklahoma, United States",35.4729886,-97.5170536
253,Hollis,"Petaluma, California, United States",38.270022,-122.60612241304348
254,Holly Brook,"Mazomanie, Wisconsin, United States",43.1753733,-89.7960089
255,Hot Chelle Rae,"Nashville, Tennessee, United States",36.1622767,-86.7742984
256,Hozier,"Bray, County Wicklow, Ireland",53.20122935,-6.106950097366967
257,Huey,"Kinloch, Missouri, United States",38.7406065,-90.3253922
258,Hunter Hayes,"Breaux Bridge, Louisiana, United States",30.2735323,-91.8992837
259,Hurricane Chris,"Shreveport, Louisiana, United States",32.4707862,-93.7559378
260,I LOVE MAKONNEN,"Atlanta, Georgia, United States",33.7489924,-84.3902644
261,iann dior,"Corpus Christi, Texas, United States",27.7635302,-97.4033191
262,Icona Pop,"Stockholm, Sweden",59.3251172,18.0710935
263,Idina Menzel,"New York City, United States",40.7127281,-74.0060152
264,Iggy Azalea,"Sydney, New South Wales, Australia",-33.8698439,151.2082848
265,iLoveMemphis,"Memphis, Tennessee, United States",35.1335022,-89.9668758
266,Imagine Dragons,"Las Vegas, Nevada, United States",36.1672559,-115.148516
267,Internet Money,"Los Angeles, California, United States",34.0536909,-118.242766
268,Iyaz,"Tortola, British Virgin Islands",18.42105685,-64.63883251023499
269,J Balvin,"Medellín, Colombia",6.2443382,-75.573553
270,J. Cole,"Fayetteville, North Carolina, United States",35.0525759,-78.878292
271,J. Holiday,"Washington D.C.,Washington, United States",38.8939168,-77.0426534
272,Jack Harlow,"Louisville, Kentucky, United States",38.2542376,-85.759407
273,Jake Owen,"Vero Beach, Florida, United States",27.6387163,-80.3975399
274,James Arthur,"Middlesbrough, North Yorkshire, England",54.4871446,-0.6272301
275,James Bay,"Hitchin, Hertfordshire, England, United Kingdom",51.9464129,-0.2791646
276,James Blake,"Enfield, London, England",51.6520851,-0.0810175
277,James Blunt,"Tidworth, Wiltshire, England",51.237302549999995,-1.6615480093038506
278,James Newton Howard,"Los Angeles, California, United States",34.0536909,-118.242766
279,Jamie Foxx,"Terrell, Texas, United States",30.1990738,-102.0974881
280,Janelle Monae,"Kansas City, Kansas, United States",39.1134562,-94.626497
281,Jason Aldean,"Nashville, Tennessee, United States",36.1622767,-86.7742984
282,Jason Derulo,"Miramar, Florida, United States",25.9873137,-80.2322706
283,Jason Mraz,"Mechanicsville, Virginia, United States",37.6276923,-77.35381329976744
284,Jawsh 685,"Auckland, New Zealand",-36.852095,174.7631803
285,Jay Rock,"Los Angeles, California, United States",34.0536909,-118.242766
286,Jay Sean,"London, England",51.5073219,-0.1276474
287,Jay-Z,"New York City, United States",40.7127281,-74.0060152
288,Jeezy,"Atlanta, Georgia, United States",33.7489924,-84.3902644
289,Jennifer Lawrence,"Indian Hills, Kentucky, United States",38.2725704,-85.6627394
290,Jennifer Lopez,"New York City, United States",40.7127281,-74.0060152
291,Jeremih,"Chicago, Illinois, United States",41.8755616,-87.6244212
292,Jermaine Dupri,"Atlanta, Georgia, United States",33.7489924,-84.3902644
293,Jerrod Niemann,"Liberal, Kansas, United States",37.0430812,-100.920999
294,Jess Glynne,"Hampstead, London, England",51.55653,-0.1783011
295,Jesse McCartney,"Ardsley, New York, United States",41.0106531,-73.8437452
296,Jessie J,"Redbridge, London, England",51.5763203,0.0454097
297,Jhay Cortez,"Río Piedras, San Juan, Puerto Rico",18.3446,-66.0698364
298,Jhene Aiko,"Los Angeles, California, United States",34.0536909,-118.242766
299,Jibbs,"St. Louis, Missouri, United States",38.6319657,-90.2428756
300,Jidenna,"Wisconsin Rapids, Wisconsin",44.3917589,-89.8228767
301,Jim Jones,"Crete, Indiana, United States",40.0433805,-84.8616282
302,Jimmy Buffett,"Key West, Florida, United States",24.5625566,-81.7724368
303,John Legend,"Springfield, Ohio, United States",39.9234046,-83.810138
304,John Martin,"London, England",51.5073219,-0.1276474
305,John Mayer,"Bridgeport, Connecticut, United States",41.1670412,-73.2048348
306,Johnta Austin,"Atlanta, Georgia, United States",33.7489924,-84.3902644
307,JoJo,"Omaha, Nebraska, United States",41.2587459,-95.9383758
308,Jon Bellion,"Dix Hills, New York, United States",40.8048207,-73.3362298
309,Jonas Brothers,"Wyckoff, New Jersey, United States",41.0095417,-74.1729222
310,Jordin Sparks,"Phoenix, Arizona, United States",33.4484367,-112.074141
311,JP Saxe,"Toronto, Ontario, Canada",43.6534817,-79.3839347
312,Juelz Santana,"New York City, United States",40.7127281,-74.0060152
313,Juice WRLD,"Homewood, Illinois, United States",41.5573283,-87.6654739
314,Juicy J,"Memphis, Tennessee, United States",35.1335022,-89.9668758
315,Julia Michaels,"Santa Clarita, California, United States",34.3916641,-118.542586
316,Justin Bieber,"London, Ontario, Canada",42.9832406,-81.243372
317,Justin Timberlake,"Memphis, Tennessee, United States",35.1335022,-89.9668758
318,Kai,"Toronto, Ontario, Canada",43.6534817,-79.3839347
319,Kali Uchis,"Alexandria, Virginia, United States",38.8051095,-77.0470229
320,Kandi Girl,"College Park, Georgia, United States",33.6534427,-84.4493725
321,Kane Brown,"Nashville, Tennessee, United States",36.1622767,-86.7742984
322,Kanye West,"Chicago, Illinois, United States",41.8755616,-87.6244212
323,Kardinal Offishall,"Scarborough, Ontario, Canada",43.7729744,-79.2576479
324,Karmin,"Boston, Massachusetts, United States",42.3554334,-71.060511
325,Katy Perry,"Santa Barbara, California, United States",34.4221319,-119.702667
326,Ke$ha,"Los Angeles, California, United States",34.0536909,-118.242766
327,Keith Urban,"Caboolture, Queensland, Australia",-27.0839336,152.9510863
328,Kelis,"New York City, United States",40.7127281,-74.0060152
329,Kelly Clarkson,"Fort Worth, Texas, United States",32.753177,-97.3327459
330,Kelly Rowland,"Houston, Texas, United States",29.7589382,-95.3676974
331,Kendrick Lamar,"Compton, California, United States",33.894927,-118.226624
332,Kenny Chesney,"Knoxville, Tennessee, United States",35.9603948,-83.9210261
333,Kent Jones,"Tallahassee, Florida, United States",30.4380832,-84.2809332
334,Keri Hilson,"Decatur, Georgia, United States",30.8736613,-84.5740953
335,Kevin Gates,"Baton Rouge, Louisiana, United States",30.4507936,-91.1391153
336,Kevin McCall,"Seattle, Washington, United States",47.6038321,-122.330062
337,Kevin Rudolf,"Pulaski, Mississippi, United States",32.2720914,-89.6022933
338,Keyshia Cole,"Oakland, California, United States",37.8044557,-122.271356
339,Khalid,"El Paso, Texas, United States",31.7865623,-106.441207
340,Kid Cudi,"Cleveland, Ohio, United States",41.4996574,-81.6936772
341,Kid Ink,"Los Angeles, California, United States",34.0536909,-118.242766
342,Kid Rock,"Romeo, Michigan, United States",42.802808,-83.0129874
343,Kidd Kidd,"New Orleans, Louisiana, United States",29.9759983,-90.0782127
344,Kiiara,"Wilmington, Illinois, United States",39.4794415,-90.4874557487872
345,Kimbra,"Hamilton, New Zealand",-37.7878809,175.281788
346,Kings Of Leon,"Mt. Juliet, Tennessee, United States",36.200055,-86.5186054
347,Kip Moore,"Nashville, Tennessee, United States",36.1622767,-86.7742984
348,Kirko Bangz,"Houston, Texas, United States",29.7589382,-95.3676974
349,Kodak Black,"Pompano Beach, Florida, United States",26.2378597,-80.1247667
350,KONGOS,"Pretoria, South Africa",-25.7459277,28.1879101
351,Kool Moe Dee,"Manhattan, New York City, New York, United States",40.7896239,-73.9598939
352,Krayzie Bone,"Cleveland, Ohio, United States",41.4996574,-81.6936772
353,Kris Allen,"Conway, Arkansas, United States",35.2521996,-92.6888936
354,Kristinia DeBarge,"Los Angeles, California, United States",34.0536909,-118.242766
355,KT Tunstall,"Edinburgh, Scotland",55.9533456,-3.1883749
356,Kygo,"Bergen, Norway",60.3943055,5.3259192
357,Kyla,"Felixstowe, Suffolk, United Kingdom",51.9639098,1.3515106
358,KYLE,"Ventura, California, United States",34.4458248,-119.0779359
359,La Roux,"London, England, UK",51.5073219,-0.1276474
360,Lady Antebellum,"Nashville, Tennessee, United States",36.1622767,-86.7742984
361,Lady Gaga,"New York City, United States",40.7127281,-74.0060152
362,Lainey Wilson,"Baskin, Louisiana, United States",32.2588885,-91.7471373
363,Lana Del Rey,"New York City, United States",40.7127281,-74.0060152
364,Lauren Alaina,"Rossville, Georgia, United States",34.983376,-85.28603
365,Lauren Bennett,"Meopham, Kent, England",51.360162900000006,0.3639095281289543
366,Lauren Daigle,"Lake Charles, Louisiana, United States",30.2072293,-93.2061609
367,Lauv,"San Francisco, California, United States",37.7790262,-122.419906
368,Lee Brice,"Nashville, Tennessee",36.1622767,-86.7742984
369,Leighton Meester,"Fort Worth, Texas, United States",32.753177,-97.3327459
370,Leona Lewis,"Islington, London, England",51.5384287,-0.0999051
371,Lewis Capaldi,"Glasgow, Scotland",55.8609825,-4.2488787
372,Liam Payne,"Wolverhampton, England",52.5847651,-2.127567
373,Lifehouse,"Los Angeles, California, United States",34.0536909,-118.242766
374,Lil Baby,"Atlanta, Georgia, United States",33.7489924,-84.3902644
375,Lil Boosie,"Baton Rouge, Louisiana, United States",30.4507936,-91.1391153
376,Lil Dicky,"Cheltenham Township, Pennsylvania, United States",40.07795585,-75.13837289108818
377,Lil Durk,"Chicago, Illinois, United States",41.8755616,-87.6244212
378,Lil Jon,"Atlanta, Georgia, United States",33.7489924,-84.3902644
379,Lil Kim,"Brooklyn, New York City, United States",40.6526006,-73.9497211
380,Lil Mosey,"Seattle, Washington, United States",47.6038321,-122.330062
381,Lil Nas X,"Austell, Georgia, United States",33.8126059,-84.6343783
382,Lil Peanut,"Memphis, Tennessee, United States",35.1335022,-89.9668758
383,Lil Pump,"Miami, Florida, United States",25.7741728,-80.19362
384,Lil Scrappy,"Brooklyn, New York, United States",40.6526006,-73.9497211
385,Lil Tecca,"Springfield Gardens, New York, United States",40.678159,-73.746521
386,Lil Tjay,"New York City, United States",40.7127281,-74.0060152
387,Lil Uzi Vert,"Philadelphia, Pennsylvania, United States",39.9527237,-75.1635262
388,Lil Wayne,"Hollygrove, New Orleans, Louisiana, United States",29.966846,-90.1203738
389,Lil Yachty,"Atlanta, Georgia, United States",33.7489924,-84.3902644
390,Lil' Boosie,"Baton Rouge, Louisiana, United States",30.4507936,-91.1391153
391,Lil' Phat,"Baton Rouge, Louisiana, United States",30.4507936,-91.1391153
392,Lily Allen,"Hammersmith, London, England",51.4920377,-0.2236401
393,Linkin Park,"Agoura Hills, California, United States",34.14791,-118.7657042
394,Little Big Town,"Homewood, Alabama, United States",33.4717732,-86.8008228
395,Lizzo,"Houston, Texas, United States",29.7589382,-95.3676974
396,Lloyd,"New Orleans, Louisiana, United States",29.9759983,-90.0782127
397,LMFAO,"Pacific Palisades, Los Angeles, California, United States",34.0480643,-118.5264706
398,Logic,"Rockville, Maryland, United States",39.0817985,-77.1516844
399,Lookas,"Miami, Florida, United States",25.7741728,-80.19362
400,Lorde,"Takapuna, Auckland, New Zealand",-36.7878213,174.7729913
401,Ludacris,"Atlanta, Georgia, United States",33.7489924,-84.3902644
402,Luis Fonsi,"Orlando, Florida, United States",28.5421109,-81.3790304
403,Lukas Graham,"Copenhagen, Denmark",55.6867243,12.5700724
404,Luke Bryan,"Nashville, Tennessee, United States",36.1622767,-86.7742984
405,Luke Combs,"Charlotte, North Carolina, United States",35.2272086,-80.8430827
406,Lupe Fiasco,"Chicago, Illinois, United States",41.8755616,-87.6244212
407,M.I.A.,"London, England",51.5073219,-0.1276474
408,Mac Miller,"Pittsburgh, Pennsylvania, United States",40.4416941,-79.9900861
409,Machine Gun Kelly,"Cleveland, Ohio, United States",41.4996574,-81.6936772
410,Macklemore,"Seattle, Washington, United States",47.6038321,-122.330062
411,Maddie,"Nashville, Tennessee, United States",36.1622767,-86.7742984
412,Madonna,"New York City, United States",40.7127281,-74.0060152
413,MAGIC!,"Lansing, Michigan, United States",42.7337712,-84.5553805
414,Majid Jordan,"Toronto, Ontario, Canada",43.6534817,-79.3839347
415,Major Lazer,"Miami, Florida, United States",25.7741728,-80.19362
416,Maneskin,"Rome, Italy",41.8933203,12.4829321
417,Maren Morris,"Arlington, Texas, United States",32.7355816,-97.1071186
418,Mariah Carey,"Huntington, New York, United States",40.868154,-73.425676
419,Marian Hill,"Philadelphia, Pennsylvania",39.9527237,-75.1635262
420,Mario,"Baltimore, Maryland, United States",39.2908816,-76.610759
421,Mark Ronson,"New York City, United States",40.7127281,-74.0060152
422,Maroon 5,"Los Angeles, California, United States",34.0536909,-118.242766
423,Marshmello,"Philadelphia, Pennsylvania, United States",39.9527237,-75.1635262
424,Martin Garrix,"Amstelveen, Netherlands",52.3025582,4.8467875
425,Mary J. Blige,"Savannah, Georgia, United States",32.0564572,-81.0951271
426,Mary Lambert,"Seattle, Washington, United States",47.6038321,-122.330062
427,Masked Wolf,"Sydney, New South Wales, Australia",-33.8698439,151.2082848
428,Matthew Santos,"Minneapolis, Minnesota, United States",44.9772995,-93.2654692
429,MAX,"Manhattan, New York City, United States",40.7896239,-73.9598939
430,Maxwell,"Hamburg, Germany",53.550341,10.000654
431,Meek Mill,"Philadelphia, Pennsylvania, United States",39.9527237,-75.1635262
432,Megan Thee Stallion,"Houston, Texas, United States",29.7589382,-95.3676974
433,Meghan Trainor,"North Eastham, Massachusetts, United States",41.8651071,-69.9911305
434,Melle Mel,"The Bronx, New York City, New York, United States",40.8506558,-73.8665241
435,Metro Boomin,"St. Louis, Missouri, United States",38.6319657,-90.2428756
436,Metro Station,"Los Angeles, California, United States",34.0536909,-118.242766
437,Michael Buble,"Burnaby, British Columbia, Canada",49.2433804,-122.972545
438,Michael Franti,"San Francisco, California, United States",37.7790262,-122.419906
439,Michael Jackson,"Gary, Indiana, United States",41.6020962,-87.3370647
440,Migos,"Lawrenceville, Georgia, United States",33.9562149,-83.9879625
441,Miguel,"Los Angeles, California, United States",34.0536909,-118.242766
442,Mike Jones,"Houston, Texas, United States",29.7589382,-95.3676974
443,Mike Posner,"Southfield, Michigan, United States",42.4733689,-83.2218731
444,Mike WiLL Made-It,"Atlanta, Georgia, United States",33.7489924,-84.3902644
445,Mikky Ekko,"Shreveport, Louisiana, United States",32.4707862,-93.7559378
446,Miley Cyrus,"Franklin, Tennessee, United States",35.925206,-86.8689419
447,Mims,"New York City, United States",40.7127281,-74.0060152
448,Miranda Lambert,"Lindale, Texas, United States",32.5156971,-95.4093998
449,Missy Elliott,"Portsmouth, Virginia, United States",36.8444196,-76.3532998
450,MJG,"Orange Mound, Memphis, Tennessee, United States",35.1102621,-89.97809169607058
451,MKTO,"Los Angeles, California, United States",34.0536909,-118.242766
452,MNEK,"Bellingham, London, England",51.4311004,-0.0244895
453,MO,"Ubberud, Odense, Denmark",55.39580695,10.255783945965753
454,Moneybagg Yo,"South Memphis, Memphis, Tennessee, United States",35.118345500000004,-89.98030118355578
455,Monty,"Chezal-Benoît, Cher, France",46.8272524,2.1125605
456,Mooski,"Opp, Alabama, United States",31.2821209,-86.255839
457,Morgan Wallen,"Corryton, Tennessee, United States",36.1536937,-83.7824062
458,Mr. ColliPark,"College Park, Georgia, United States",33.6534427,-84.4493725
459,Mr. Hudson,"Birmingham, England",52.4796992,-1.9026911
460,Mr. Probz,"Zoetermeer, Netherlands",52.06228915,4.487754536970652
461,Mumford,"London, United Kingdom",51.5073219,-0.1276474
462,Murda Beatz,"Toronto, Ontario, Canada",43.6534817,-79.3839347
463,Mustard,"Los Angeles, California, United States",34.0536909,-118.242766
464,My Chemical Romance,"Newark, New Jersey, United States",40.735657,-74.1723667
465,N*E*R*D,"Virginia Beach, Virginia, United States",36.8529841,-75.9774183
466,Natalie La Rose,"Amsterdam, Netherlands",52.3727598,4.8936041
467,Natasha Bedingfield,"Haywards Heath, West Sussex, England",50.9999616,-0.1049747
468,Nate Dogg,"Long Beach, California",33.7690164,-118.191604
469,Nate Ruess,"Glendale, Arizona, United States",33.5386858,-112.1859941
470,Naughty Boy,"Watford, England",51.6553875,-0.3957425
471,NAV,"Rexdale, Ontario, Canada",43.7213619,-79.5655129
472,Nayer,"Miami, United States",25.7741728,-80.19362
473,Ne-Yo,"Las Vegas, Nevada, United States",36.1672559,-115.148516
474,Nelly,"St. Louis, Missouri, United States",38.6319657,-90.2428756
475,Nelly Furtado,"Victoria, British Columbia, Canada",48.4283182,-123.3649533
476,Neon Hitch,"Nottingham, England",52.9534193,-1.1496461
477,Neon Trees,"Provo, Utah, United States",40.2337289,-111.6587085
478,New Boyz,"Hesperia, California, United States",34.4263886,-117.3008784
479,NF,"Gladwin, Michigan, United States",43.9747774,-84.3873235
480,Niall Horan,"Mullingar, Westmeath, Ireland",53.52545355,-7.337575632590402
481,Nick Jonas,"Dallas, Texas, United States",32.7762719,-96.7968559
482,Nick Lachey,"Harlan, Kentucky, United States",36.8411336,-83.22678
483,Nickelback,"Hanna, Alberta, Canada",51.6445566,-111.927479
484,Nicki Minaj,"New York City, United States",40.7127281,-74.0060152
485,Nicky Jam,"Lawrence, Massachusetts, United States",42.7070354,-71.1631137
486,Nico,"Cologne, Germany",50.938361,6.959974
487,Niia,"Needham, Massachusetts, US",42.2802645,-71.2360624
488,Niko Moon,"Tyler, Texas, United States",32.3512601,-95.3010624
489,Nio Garcia,"San Juan, Puerto Rico",18.465299,-66.116666
490,NLE Choppa,"Memphis, Tennessee, United States",35.1335022,-89.9668758
491,Normani,"Atlanta, Georgia, United States",33.7489924,-84.3902644
492,O.T. Genasis,"Long Beach, California, United States",33.7690164,-118.191604
493,Of Monsters And Men,"Reykjavík, Iceland",64.145981,-21.9422367
494,Offset,"Lawrenceville, Georgia, United States",33.9562149,-83.9879625
495,Old Dominion,"Nashville, Tennessee, United States",36.1622767,-86.7742984
496,Olivia O'Brien,"Thousand Oaks, California, United States",34.1705609,-118.8375937
497,Olivia Rodrigo,"Murrieta, California, United States",33.560832,-117.2106564
498,Olly Murs,"Witham, Essex, England",51.8019608,0.6383746
499,Omarion,"Inglewood, California, United States",33.9562003,-118.353132
500,OMI,"Clarendon, Jamaica",17.951852549999998,-77.27192765048153
501,One Direction,"London, England",51.5073219,-0.1276474
502,OneRepublic,"Colorado Springs, Colorado, United States",38.8339578,-104.825348
503,Orianthi,"Adelaide, Australia",-34.9281805,138.5999312
504,Owl City,"Owatonna, Minnesota, United States",44.0839937,-93.2261076
505,Ozuna,"San Juan, Puerto Rico",18.465299,-66.116666
506,P!nk,"Doylestown Township, Pennsylvania, United States",40.30116125,-75.1031279887699
507,Panic! At The Disco,"Las Vegas, Nevada, United States",36.1672559,-115.148516
508,Paramore,"Franklin, Tennessee, United States",35.925206,-86.8689419
509,Parmalee,"Parmele, North Carolina, United States",35.8165476,-77.3141317
510,Passenger,"Brighton, England",50.83891575,-0.12693054250074665
511,Patrick Stump,"Evanston, Illinois, United States",42.0447388,-87.6930459
512,Paul McCartney,"Liverpool, England",53.4071991,-2.99168
513,Paul Wall,"Houston, Texas, United States",29.7589382,-95.3676974
514,Paula DeAnda,"San Angelo, Texas, United States",31.4649685,-100.4405094
515,Pharrell,"Virginia Beach, Virginia, United States",36.8529841,-75.9774183
516,Pharrell Williams,"Virginia Beach, Virginia, United States",36.8529841,-75.9774183
517,Phillip Phillips,"Leesburg, Georgia, United States",31.7324556,-84.1711966
518,Pinkfong,"Seocho-dong, Seoul, South Korea",37.48818,127.01751
519,Pistol Annies,"Nashville, Tennessee, United States",36.1622767,-86.7742984
520,Pitbull,"Miami, Florida, U.S",25.6205577,-80.3885373498768
521,Plain White T's,"Lombard, Illinois, United States",41.8864687,-88.0201536
522,Playboi Carti,"Riverdale, Georgia, United States",33.5726113,-84.4132594
523,Plies,"Fort Myers, Florida, United States",26.640628,-81.8723084
524,PnB Rock,"Philadelphia, Pennsylvania, United States",39.9527237,-75.1635262
525,Polo G,"Old Town, Chicago, Illinois, United States",41.9947424,-87.7677254
526,Polow Da Don,"Atlanta, Georgia, United States",33.7489924,-84.3902644
527,Pooh Shiesty,"Memphis, Tennessee, United States",35.1335022,-89.9668758
528,Pop Smoke,"New York City, United States",40.7127281,-74.0060152
529,Portugal. The Man,"Wasilla, Alaska, United States",61.5824216,-149.442563
530,Post Malone,"Los Angeles, California, United States",34.0536909,-118.242766
531,Powfu,"Vancouver, Canada",49.2608724,-123.113952
532,Pretty Ricky,"Miami, Florida, United States",25.7741728,-80.19362
533,Project Pat,"North Memphis, Memphis, Tennessee, United States",35.0638918,-89.9735953
534,PSY,"Seoul, South Korea",37.5666791,126.9782914
535,Pusha T,"Virginia Beach, Virginia, United States",36.8529841,-75.9774183
536,Quavo,"Lawrenceville, Georgia, United States",33.9562149,-83.9879625
537,R. City,"Saint Thomas, United States Virgin Islands",18.34290815,-64.91889970060265
538,R. Kelly,"Chicago, Illinois, United States",41.8755616,-87.6244212
539,Rachel Platten,"Newton Centre, Massachusetts, United States",42.3306713,-71.1944361
540,Rae Sremmurd,"Tupelo, Mississippi, United States",34.2576067,-88.7033859
541,Randy Houser,"Lake, Mississippi, United States",32.3431999,-89.3286753
542,Rascal Flatts,"Columbus, Ohio, United States",39.9622601,-83.0007065
543,Rauw Alejandro,"San Juan, Puerto Rico",18.465299,-66.116666
544,Ray Dalton,"Seattle, Washington",47.6038321,-122.330062
545,Ray J,"McComb, Mississippi, United States",31.2437872,-90.4531536
546,Red Hot Chili Peppers,"Los Angeles, California, United States",34.0536909,-118.242766
547,Remy Boyz,"Paterson, New Jersey, United States",40.9167654,-74.171811
548,Rich Boy,"Mobile, Alabama, United States",30.6867339,-88.0848929
549,Rich Gang,"New Orleans, Louisiana, United States",29.9759983,-90.0782127
550,Rich Homie Quan,"Atlanta, Georgia, United States",33.7489924,-84.3902644
551,Rich The Kid,"College Park, Georgia, United States",33.6534427,-84.4493725
552,Rick Ross,"Miami Gardens, Florida, United States",25.9420377,-80.2456045
553,Rihanna,"Saint Michael, Barbados",13.1182985,-59.60157828479271
554,Rita Ora,"Pristina, Serbia",44.79900155,20.478207228792492
555,Ritt Momney,"Salt Lake City, Utah, United States",40.7596198,-111.8867975
556,Rivers Cuomo,"Los Angeles, California, United States",34.0536909,-118.242766
557,Rixton,"Manchester, England",53.4794892,-2.2451148
558,Rob Thomas,"Sarasota, Florida, United States",27.3365805,-82.5308545
559,Robin Thicke,"Los Angeles, California, United States",34.0536909,-118.242766
560,Rocko,"Atlanta, Georgia, United States",33.7489924,-84.3902644
561,Rod Wave,"St. Petersburg, Florida, United States",27.7703796,-82.6695085
562,Roddy Ricch,"Compton, California, United States",33.894927,-118.226624
563,Rodney Atkins,"Cumberland Gap, Tennessee, United States",36.599527,-83.6685252
564,Roman GianArthur,,,
565,Ron Browz,"New York City, United States",40.7127281,-74.0060152
566,Roscoe Dash,"Little Rock, Arkansas, United States",34.7465071,-92.2896267
567,Rozes,"Montgomeryville, Pennsylvania, United States",40.2498234,-75.23848897334233
568,Ruth B,"Edmonton, Alberta, Canada",53.5462055,-113.491241
569,Ryan Hurd,"Chicago, Illinois, United States",41.8755616,-87.6244212
570,Ryan Lewis,"Seattle, Washington, United States",47.6038321,-122.330062
571,Ryan Tedder,"Colorado Springs, Colorado, United States",38.8339578,-104.825348
572,Sabi,"Inglewood, California, United States",33.9562003,-118.353132
573,Sage The Gemini,"Fairfield, California, United States",38.2493581,-122.039966
574,SAINt JHN,"Georgetown, Guyana",6.8137426,-58.1624465
575,Sam Hunt,"Nashville, Tennessee, United States",36.1622767,-86.7742984
576,Sam Smith,"London, England",51.5073219,-0.1276474
577,Sammie,"Miami, Florida, United States",25.7741728,-80.19362
578,Santana,"San Francisco, California",37.7790262,-122.419906
579,Sara Bareilles,"Eureka, California, United States",40.7906871,-124.1673746
580,Saving Abel,"Corinth, Mississippi, United States",34.9343599,-88.5223353
581,Saweetie,"Santa Clara, California, United States",37.2333253,-121.6846349
582,ScHoolboy Q,"South Los Angeles, California, United States",33.9282906,-118.2788135
583,Sean Garrett,"Atlanta, Georgia, United States",33.7489924,-84.3902644
584,Sean Kingston,"Kingston, Jamaica",17.9712148,-76.7928128
585,Sean Paul,"Kingston, Jamaica",17.9712148,-76.7928128
586,Secondhand Serenade,"Menlo Park, California, United States",37.4519671,-122.1779927
587,Selena Gomez,"Grand Prairie, Texas, United States",32.7459645,-96.9977846
588,SHAED,"Washington D.C.,Washington,  United States",38.8939168,-77.0426534
589,Shakira,"Barranquilla, Colombia",10.9810761,-74.7988827
590,Shawn Mendes,"Pickering, Ontario, Canada",43.835765,-79.090576
591,Sheck Wes,"New York City, United States",40.7127281,-74.0060152
592,Shinedown,"Jacksonville, Florida, United States",30.3321838,-81.655651
593,Shontelle,"Saint James, Barbados",13.1863793,-59.62519195363248
594,Shop Boyz,"Bankhead, Atlanta, Georgia, United States",33.7718772,-84.4255518
595,Sia,"Adelaide, Australia",-34.9281805,138.5999312
596,Silento,"Stone Mountain, Georgia, United States",33.8062166,-84.1457505
597,Skip Marley,"Kingston, Jamaica",17.9712148,-76.7928128
598,Skrillex,"Los Angeles, California, United States",34.0536909,-118.242766
599,Skylar Grey,"Mazomanie, Wisconsin, United States",43.1753733,-89.7960089
600,Slim Thug,"Houston, Texas, United States",29.7589382,-95.3676974
601,Snoop Dogg,"Long Beach, California, United States",33.7690164,-118.191604
602,Snow,"Toronto, Ontario, Canada",43.6534817,-79.3839347
603,Snow Patrol,"Dundee, Scotland",56.4605938,-2.97019
604,Social House,"Pittsburgh, Pennsylvania, US",40.4416941,-79.9900861
605,Sons,,,
606,Soulja Boy,"Atlanta, Georgia, United States",33.7489924,-84.3902644
607,Spearhead,"Oakland, California, United States",37.8044557,-122.271356
608,SpotemGottem,"Jacksonville, Florida, United States",30.3321838,-81.655651
609,Static Major,"Louisville, Kentucky, United States",38.2542376,-85.759407
610,StaySolidRocky,"San Antonio, Texas, United States",29.4246002,-98.4951405
611,Sugarland,"Douglas, Georgia, United States",33.6995565,-84.7622973
612,Superpower,,,
613,Surf Mesa,"Sammamish, Washington, United States",47.6088445,-122.0423067
614,Surfaces,"College Station, Texas, United States",30.5955289,-96.3071042
615,Swae Lee,"Tupelo, Mississippi, United States",34.2576067,-88.7033859
616,Swedish House Mafia,"Stockholm, Sweden",59.3251172,18.0710935
617,SZA,"Maplewood, New Jersey, United States",40.7312123,-74.2734808
618,T-Pain,"Tallahassee, Florida, United States",30.4380832,-84.2809332
619,T-Wayne,"Houston, Texas",29.7589382,-95.3676974
620,T.I.,"Bankhead, Atlanta, Georgia, United States",33.7718772,-84.4255518
621,Tae,"Green Bay, Wisconsin, United States",44.5126379,-88.0125794
622,Taio Cruz,"Brent, Greater London, England",51.5639957,-0.27590641378489267
623,Tate McRae,"Calgary, Alberta, Canada",51.0460954,-114.065465
624,Tay Dizm,"Miami, Florida, United States",25.7741728,-80.19362
625,Taylor Hicks,"Birmingham, Alabama, United States",33.5206824,-86.8024326
626,Taylor Swift,"Nashville, Tennessee, United States",36.1622767,-86.7742984
627,Teddy Geiger,"Rochester, New York, United States",43.157285,-77.615214
628,Tems,"Lagos, Nigeria",6.4550575,3.3941795
629,The All-American Rejects,"Stillwater, Oklahoma, United States",36.1156306,-97.0585717
630,The Band Perry,"Greeneville, Tennessee, United States",36.1631575,-82.8309861
631,The Black Eyed Peas,"Los Angeles, California, United States",34.0536909,-118.242766
632,The Cataracs,"Berkeley, California, United States",37.8753497,-122.23963364918777
633,The Chainsmokers,"New York City, United States",40.7127281,-74.0060152
634,The DEY,"South Bronx, New York City, New York, United States",40.8572296,-73.8444142
635,The Fray,"Denver, Colorado, United States",39.7392364,-104.984862
636,The Game,"Compton, California, United States",33.894927,-118.226624
637,The Kid LAROI,"Waterloo, New South Wales, Australia",-33.9002762,151.2073137
638,The Lumineers,"Ramsey, New Jersey, United States",41.0573188,-74.1409771
639,The Neighbourhood,"Newbury Park, California, United States",34.183671,-118.91183
640,The Pussycat Dolls,"Los Angeles, California, United States",34.0536909,-118.242766
641,The Red Jumpsuit Apparatus,"Middleburg, Florida, United States",30.055702500000002,-81.90363744258859
642,The Scene,"Los Angeles, California, United States",34.0536909,-118.242766
643,The Script,"Dublin, Ireland",53.3498006,-6.2602964
644,The Veronicas,"Albany Creek, Queensland, Australia",-27.353639,152.96847128109638
645,The Wanted,"Swinton, Greater Manchester, England",53.5095363,-2.3417975
646,The Weeknd,"Toronto, Ontario, Canada",43.6534817,-79.3839347
647,The-Dream,"Atlanta, Georgia, United States",33.7489924,-84.3902644
648,Thomas Rhett,"Nashville, Tennessee, United States",36.1622767,-86.7742984
649,Thompson Square,"Nashville, Tennessee, United States",36.1622767,-86.7742984
650,Three 6 Mafia,"Memphis, Tennessee, United States",35.1335022,-89.9668758
651,Tiara Thomas,"Indianapolis, Indiana, United States",39.7683331,-86.1583502
652,Tim McGraw,"Start, Louisiana, United States",32.4865316,-91.8592945
653,Timbaland,"Norfolk, Virginia, United States",36.8968052,-76.2602336
654,Tinashe,"Pasadena, California, United States",34.1476452,-118.1444779
655,Tinie Tempah,"Plumstead, London, England",51.4804635,0.0924286
656,Toby Keith,"Moore, Oklahoma, United States",35.3383254,-97.4867045
657,Tones And I,"Frankston, Victoria, Australia",-38.1444729,145.1268808
658,Too $hort,"Oakland, California, United States",37.8044557,-122.271356
659,Tory Lanez,"Brampton, Ontario, Canada",43.6858146,-79.7599337
660,Tove Lo,"Djursholm, Stockholm, Sweden",59.3973535,18.0880625
661,Trace Adkins,"Springhill, Louisiana, United States",33.0059692,-93.4668396
662,Train,"San Francisco, California, United States",37.7790262,-122.419906
663,Travie McCoy,"Geneva, New York, United States",42.8690271,-76.9786122
664,Travis Scott,"Houston, Texas, United States",29.7589382,-95.3676974
665,Trevor Daniel,"Houston, Texas, United States",29.7589382,-95.3676974
666,Trey Songz,"Petersburg, Virginia, United States",37.227928,-77.4019268
667,twenty one pilots,"Columbus, Ohio, United States",39.9622601,-83.0007065
668,Ty Dolla $ign,"Los Angeles, California, United States",34.0536909,-118.242766
669,Tyga,"Gardena, California, United States",33.8963593,-118.3053037
670,Tyrese,"Los Angeles, California, United States",34.0536909,-118.242766
671,Uncle Kracker,"Mount Clemens, Michigan, United States",42.5972563,-82.8779754
672,Unk,"Atlanta, Georgia, United States",33.7489924,-84.3902644
673,Usher,"Dallas, Texas, United States",32.7762719,-96.7968559
674,Vance Joy,"Melbourne, Victoria, Australia",-37.8142176,144.9631608
675,Vika Jigulina,"Bucharest, Romania",44.4361414,26.1027202
676,Vinz,"Oslo, Norway",59.9133301,10.7389701
677,Waka Flocka Flame,"Atlanta, Georgia, United States",33.7489924,-84.3902644
678,Wale,"Gaithersburg, Maryland, United States",39.1399187,-77.1929215
679,WALK THE MOON,"Cincinnati, Ohio, United States",39.1014537,-84.5124602
680,Walker Hayes,"Mobile, Alabama, United States",30.6867339,-88.0848929
681,Wanz,"Seattle, Washington, United States",47.6038321,-122.330062
682,Webbie,"Baton Rouge, Louisiana, United States",30.4507936,-91.1391153
683,will.i.am,"Los Angeles, California, United States",34.0536909,-118.242766
684,Willy William,"Fréjus, Provence-Alpes-Côte d'Azur, France",43.4330308,6.7360182
685,Wiz Khalifa,"Pittsburgh, Pennsylvania, United States",40.4416941,-79.9900861
686,Wizkid,"Surulere, Lagos, Nigeria",6.487201450000001,3.353258726723983
687,Wyclef Jean,"Newark, New Jersey, United States",40.735657,-74.1723667
688,Wynter,"New York City, United States",40.7127281,-74.0060152
689,X Ambassadors,"Ithaca, New York, United States",42.43717945,-76.54836230003966
690,XXXTENTACION,"Broward County, Florida, United States",26.1598074,-80.4623642
691,YFN Lucci,"Atlanta, Georgia, United States",33.7489924,-84.3902644
692,YG,"Compton, California, United States",33.894927,-118.226624
693,Ying Yang Twins,"Atlanta, Georgia, United States",33.7489924,-84.3902644
694,YK Osiris,"Jacksonville, Florida, United States",30.3321838,-81.655651
695,Ylvis,"Bergen,Norway",60.3943055,5.3259192
696,YNW Melly,"Gifford, Florida, United States",27.672998,-80.41788843483906
697,Yo Gotti,"Memphis, Tennessee, United States",35.1335022,-89.9668758
698,Young Buck,"Nashville, Tennessee, United States",36.1622767,-86.7742984
699,Young Dolph,"Memphis, Tennessee, United States",35.1335022,-89.9668758
700,Young Dro,"Bankhead, Atlanta, Georgia, United States",33.7718772,-84.4255518
701,Young Jeezy,"Atlanta, Georgia, United States",33.7489924,-84.3902644
702,Young Money,"Hollygrove, New Orleans, Louisiana, United States",29.966846,-90.1203738
703,Young Thug,"Atlanta, Georgia, United States",33.7489924,-84.3902644
704,YoungBoy Never Broke Again,"Baton Rouge, Louisiana, United States",30.4507936,-91.1391153
705,Yung Berg,"Chicago, Illinois, United States",41.8755616,-87.6244212
706,Yung Bleu,"Mobile, Alabama, United States",30.6867339,-88.0848929
707,Yung D,,,
708,Yung Joc,"College Park, Georgia, United States",33.6534427,-84.4493725
709,Zac Brown Band,"Atlanta, Georgia, United States",33.7489924,-84.3902644
710,Zacari,"Bakersfield, California, United States",35.3738712,-119.0194639
711,Zara Larsson,"Solna, Stockholm, Sweden",59.361367,18.0013693
712,Zay Hilfigerrr,"Detroit, Michigan, United States",42.3315509,-83.0466403
713,Zayion McCall,"Detroit, Michigan, United States",42.3315509,-83.0466403
714,Zayn,"Bradford, West Yorkshire, England",53.7944229,-1.7519186
715,Zedd,"Kaiserslautern, Germany",49.4432174,7.7689951
